City_ID,City,Country,Lat,Lng,Max Temp,Humidity,Cloudiness,Wind Speed,Current Description
0,Constitucion,CL,-35.3333,-72.4167,61.02,84,16,12.26,few clouds
1,Durango,MX,24.8333,-104.8333,64.72,26,91,22.48,overcast clouds
2,Oil City,US,41.4339,-79.7064,27.99,69,100,19.57,overcast clouds
3,Bay City,US,43.5945,-83.8889,23.32,77,75,23.02,light snow
4,Englewood,US,39.6478,-104.9878,46.45,15,20,11.5,few clouds
5,Painesville,US,41.7245,-81.2457,24.04,82,100,18.41,snow
6,Loveland,US,40.3978,-105.075,48.43,12,0,20.71,clear sky
7,Choctaw,US,35.4976,-97.2689,45.12,31,0,18.41,clear sky
8,Marsh Harbour,BS,26.5412,-77.0636,75.18,80,24,13.06,few clouds
9,Hastings,GB,50.8552,0.5729,47.52,55,10,10.36,clear sky
10,Kingman,US,35.1894,-114.053,63.12,18,0,10.36,clear sky
11,Matamoros,MX,25.5333,-103.25,63.1,41,86,18.12,light rain
12,Athens,GR,37.9795,23.7162,49.37,65,20,5.75,few clouds
13,Caldwell,US,43.6629,-116.6874,56.55,28,0,16.11,clear sky
14,Leon Valley,US,29.4952,-98.6186,48.04,72,40,6.91,light rain
15,Green River,US,41.5286,-109.4662,36.0,62,1,8.99,clear sky
16,Easton,US,40.6884,-75.2207,44.29,35,20,13.8,few clouds
17,Havelock,US,34.8791,-76.9013,55.36,87,75,0.0,broken clouds
18,Pascagoula,US,30.3658,-88.5561,55.42,47,75,11.5,broken clouds
19,York,US,40.1254,-77.0,44.19,35,90,13.35,overcast clouds
20,Houma,US,29.5958,-90.7195,53.01,50,95,8.01,overcast clouds
21,Woodward,US,36.4337,-99.3904,47.43,23,0,16.11,clear sky
22,West Memphis,US,35.1465,-90.1845,45.28,39,20,11.5,few clouds
23,Worland,US,44.0169,-107.9554,45.05,24,0,10.36,clear sky
24,Rapid Valley,US,44.0625,-103.1463,38.77,33,0,10.0,clear sky
25,Rexburg,US,43.826,-111.7897,33.42,46,0,5.75,clear sky
26,Traverse City,US,44.7631,-85.6206,21.31,82,100,13.8,light snow
27,Cedar City,US,37.6775,-113.0619,47.39,31,0,3.44,clear sky
28,Danville,US,36.586,-79.395,52.18,34,0,9.22,clear sky
29,Evanston,US,42.0411,-87.6901,23.68,60,75,13.8,broken clouds
30,Rantoul,US,40.3084,-88.1559,21.22,75,100,17.27,overcast clouds
31,Harrisburg,US,40.2737,-76.8844,45.14,38,87,10.0,overcast clouds
32,High Rock,BS,26.6208,-78.2833,77.02,80,27,12.39,scattered clouds
33,Effingham,US,32.3669,-81.3332,58.95,55,91,11.27,overcast clouds
34,Seminole,US,28.7086,-81.2081,73.76,84,100,17.27,overcast clouds
35,Carroll,US,39.5501,-77.0164,45.95,36,0,8.01,clear sky
36,North Myrtle Beach,US,33.816,-78.68,60.13,81,80,4.21,broken clouds
37,Twentynine Palms,US,34.1356,-116.0542,70.97,17,10,8.01,clear sky
38,Green Valley,US,31.8543,-110.9937,70.57,26,71,12.77,broken clouds
39,Benito Juarez,MX,19.385,-99.165,69.01,37,68,13.0,broken clouds
40,Texarkana,US,33.4251,-94.0477,55.62,21,0,12.66,clear sky
41,Alice Town,BS,25.7167,-79.3,76.6,82,17,13.47,few clouds
42,Lebanon,US,36.2081,-86.2911,43.02,48,0,18.41,clear sky
43,Fallon,US,39.4735,-118.7774,58.91,20,75,4.61,broken clouds
44,Springfield,US,37.2153,-93.2982,31.15,48,40,18.41,scattered clouds
45,Gillette,US,44.2911,-105.5022,41.05,29,0,9.22,clear sky
46,Homestead,US,25.4687,-80.4776,82.0,72,0,9.22,clear sky
47,Hattiesburg,US,31.3271,-89.2903,51.73,44,40,5.75,scattered clouds
48,Sturgeon Bay,US,44.8342,-87.377,25.16,50,75,17.27,broken clouds
49,Blytheville,US,35.9273,-89.919,43.02,44,75,12.66,broken clouds
50,Tallahassee,US,30.4383,-84.2807,50.32,73,100,5.75,overcast clouds
51,London,GB,51.5085,-0.1257,49.75,91,20,8.05,few clouds
52,Lexington,US,37.9887,-84.4777,33.8,44,20,12.66,few clouds
53,East Moline,US,41.5009,-90.4443,24.37,64,100,21.85,overcast clouds
54,Front Royal,US,38.9182,-78.1944,45.01,34,0,13.8,clear sky
55,Raymondville,US,26.4815,-97.7831,57.24,57,95,17.49,overcast clouds
56,Sahuaripa,MX,29.05,-109.2333,75.79,30,74,4.05,broken clouds
57,Callaway,US,30.153,-85.5699,51.98,59,97,5.01,overcast clouds
58,Pierre,US,44.3683,-100.351,27.52,43,0,6.91,clear sky
59,Durant,US,33.994,-96.3708,50.36,25,0,14.97,clear sky
60,Rawlins,US,41.7911,-107.2387,26.49,39,0,12.66,clear sky
61,Mount Vernon,US,40.9126,-73.8371,48.94,33,82,15.99,broken clouds
62,Glenwood Springs,US,39.5505,-107.3248,43.72,35,0,0.0,clear sky
63,Marathon,US,44.9,-89.7668,25.84,44,40,18.41,scattered clouds
64,Cockburn Town,TC,21.4612,-71.1419,75.97,65,67,19.75,broken clouds
65,Bobcaygeon,CA,44.5462,-78.542,24.08,64,98,13.0,overcast clouds
66,Morristown,US,36.214,-83.2949,43.5,44,40,9.22,scattered clouds
67,Lawrenceburg,US,38.0373,-84.8966,34.38,47,0,8.05,clear sky
68,La Crosse,US,43.8014,-91.2396,27.16,45,0,23.02,clear sky
69,Ashland,US,40.8167,-82.2665,20.03,72,99,16.46,overcast clouds
70,Hays,US,30.0502,-98.0336,52.16,57,100,1.99,overcast clouds
71,Tupelo,US,34.2576,-88.7034,50.29,36,0,12.19,clear sky
72,Northport,US,33.229,-87.5772,51.62,42,0,5.75,clear sky
73,China,MX,25.7,-99.2333,56.7,44,72,16.22,broken clouds
74,Clovis,US,36.8252,-119.7029,70.03,41,100,3.44,overcast clouds
75,Liberal,US,37.0431,-100.921,47.44,19,0,12.66,clear sky
76,Starkville,US,33.4504,-88.8184,51.46,40,0,5.75,clear sky
77,Oxford,GB,51.7522,-1.256,49.37,94,100,8.05,moderate rain
78,Pecos,US,31.4229,-103.4932,54.43,37,100,5.75,overcast clouds
79,Bloomington,US,44.8408,-93.2983,26.58,52,0,14.97,clear sky
80,Mandeville,JM,18.0417,-77.5071,66.56,89,27,4.07,scattered clouds
81,Rupert,US,42.6191,-113.6772,46.35,42,0,10.36,clear sky
82,Yavaros,MX,26.7,-109.5167,75.45,59,95,13.31,light rain
83,Sanford,US,28.8006,-81.2731,73.69,84,100,17.27,overcast clouds
84,Lancaster,US,40.2504,-76.2499,44.08,41,71,4.0,broken clouds
85,Peterborough,GB,52.5736,-0.2478,49.87,93,100,17.27,overcast clouds
86,Jackson,US,42.4165,-122.8345,63.37,39,0,4.0,clear sky
87,Vermillion,US,42.7794,-96.9292,21.36,80,51,11.01,broken clouds
88,Indianola,US,41.3581,-93.5574,26.4,50,100,11.01,overcast clouds
89,Pitiquito,MX,30.7,-112.0833,75.52,15,26,8.3,scattered clouds
90,Ingersoll,CA,43.0334,-80.883,23.07,62,100,19.26,overcast clouds
91,Empalme,MX,27.9667,-110.8167,81.36,37,59,12.35,broken clouds
92,Marion,US,39.7684,-86.1555,22.55,72,100,20.71,overcast clouds
93,Rancho Palos Verdes,US,33.7445,-118.387,75.97,53,0,12.66,clear sky
94,Benton Harbor,US,42.1167,-86.4542,23.11,64,100,19.57,overcast clouds
95,San Quintin,MX,30.4833,-115.95,64.26,54,3,13.13,clear sky
96,Colonial Park,US,40.3006,-76.8097,44.51,38,88,10.0,overcast clouds
97,Clarksville,US,36.5298,-87.3595,40.08,40,100,18.41,overcast clouds
98,Union City,US,37.5958,-122.0192,68.49,64,0,8.05,clear sky
99,Encinitas,US,33.037,-117.292,77.5,43,0,6.91,clear sky
100,Flagstaff,US,35.1981,-111.6513,48.6,37,0,10.36,clear sky
101,Milford Mill,US,39.3479,-76.77,48.65,34,57,8.01,broken clouds
102,Waverly,US,42.7392,-84.6208,21.54,77,100,13.8,haze
103,Socorro,US,31.6546,-106.3033,53.46,32,75,11.5,broken clouds
104,West Des Moines,US,41.572,-93.7453,27.05,53,75,17.27,broken clouds
105,West Wendover,US,40.7391,-114.0733,43.81,39,0,5.75,clear sky
106,Poquoson,US,37.1224,-76.3458,51.98,64,0,6.91,clear sky
107,Show Low,US,34.2542,-110.0298,48.49,33,20,10.36,few clouds
108,Plover,US,44.4564,-89.544,26.71,28,40,12.66,scattered clouds
109,Pocatello,US,42.8713,-112.4455,44.51,38,0,14.97,clear sky
110,Saint Simons,US,31.1352,-81.3901,59.04,72,100,6.91,light rain
111,Worthington,US,40.0931,-83.018,24.26,64,100,20.71,overcast clouds
112,Winnemucca,US,40.973,-117.7357,55.45,24,0,4.61,clear sky
113,Chubbuck,US,42.9208,-112.4661,44.49,35,0,14.97,clear sky
114,Brownsville,US,25.9018,-97.4975,55.9,68,100,14.97,overcast clouds
115,Albany,US,42.6001,-73.9662,38.05,71,85,4.0,overcast clouds
116,Keokuk,US,40.3973,-91.3849,26.1,63,100,10.36,overcast clouds
117,Farmington,US,36.7281,-108.2187,49.77,27,20,5.75,few clouds
118,Sand Springs,US,36.1398,-96.1089,43.38,26,0,11.5,clear sky
119,Elk City,US,35.412,-99.4043,48.42,20,40,18.41,scattered clouds
120,Redlands,US,34.0556,-117.1825,74.16,26,75,1.01,broken clouds
121,Ammon,US,43.4696,-111.9666,33.94,63,0,5.75,clear sky
122,Pahrump,US,36.2083,-115.9839,62.94,22,18,5.01,few clouds
123,Hondo,JP,32.45,130.2,53.96,65,21,7.65,few clouds
124,Martinez,US,38.0194,-122.1341,67.48,68,0,6.91,clear sky
125,Oneonta,US,42.4529,-75.0638,32.81,91,97,2.82,overcast clouds
126,Lakeway,US,30.3638,-97.9796,54.09,43,0,1.99,clear sky
127,The Woodlands,US,30.158,-95.4894,54.46,51,100,6.91,overcast clouds
128,Howard,US,39.2504,-76.933,49.21,35,57,3.0,broken clouds
129,Brunswick,US,41.2381,-81.8418,22.33,68,100,17.27,overcast clouds
130,Monroe,US,43.1501,-77.6831,31.62,69,100,19.57,overcast clouds
131,Venice,US,27.0998,-82.4543,76.98,86,0,12.66,clear sky
132,Le Mars,US,42.7942,-96.1656,22.51,63,0,14.97,clear sky
133,Clifton,US,40.8584,-74.1638,48.74,33,0,12.66,clear sky
134,Waycross,US,31.2136,-82.354,53.85,54,100,12.66,moderate rain
135,Douglas,US,41.3,-96.167,26.58,49,40,20.71,scattered clouds
136,Hot Springs,US,34.5037,-93.0552,48.51,61,0,10.0,clear sky
137,Sabinas Hidalgo,MX,26.5,-100.1667,51.17,60,100,17.56,overcast clouds
138,Hurricane,US,37.1753,-113.2899,60.33,20,48,18.1,scattered clouds
139,Marshall,US,34.3834,-86.3333,48.51,45,0,11.5,clear sky
140,Guerrero Negro,MX,27.9769,-114.0611,70.81,36,3,13.24,clear sky
141,Port Arthur,CN,38.8,121.2667,46.62,68,75,6.15,broken clouds
142,Georgetown,MY,5.4112,100.3354,78.73,88,20,5.75,few clouds
143,Oneida,US,43.2001,-75.4663,34.02,75,100,5.75,light snow
144,Dillon,US,34.4166,-79.3712,60.78,49,89,7.05,overcast clouds
145,Cortez,US,37.3489,-108.5859,45.36,46,40,6.91,scattered clouds
146,Washington,US,47.5001,-120.5015,54.34,39,59,3.27,broken clouds
147,Baker City,US,44.7749,-117.8344,46.11,44,0,14.97,clear sky
148,Camalu,MX,30.85,-116.0667,64.56,51,18,8.79,few clouds
149,Sturgis,US,41.7992,-85.4192,21.0,79,75,12.66,broken clouds
150,Casper,US,42.8666,-106.3131,39.79,28,0,13.8,clear sky
151,Palm Beach,US,26.6503,-80.4498,81.01,67,56,11.03,broken clouds
152,Godfrey,US,38.9556,-90.1868,26.33,58,100,16.11,overcast clouds
153,Greenwood,US,34.1668,-82.1165,53.96,36,0,9.22,clear sky
154,Red Wing,US,44.5625,-92.5338,26.69,43,0,8.05,clear sky
155,Maneadero,MX,31.7167,-116.5667,64.09,71,37,1.99,scattered clouds
156,Kearney,US,40.6995,-99.0815,30.76,39,0,18.41,clear sky
157,Marshalltown,US,42.0494,-92.908,25.2,58,0,21.85,clear sky
158,Connersville,US,39.6412,-85.1411,23.68,79,97,15.37,overcast clouds
159,Puerto Penasco,MX,31.3167,-113.5333,70.92,38,6,10.0,clear sky
160,Coronado,US,32.6859,-117.1831,76.51,41,40,14.97,scattered clouds
161,Nacogdoches,US,31.6002,-94.6335,53.46,38,0,13.8,clear sky
162,Concordia,AR,-31.393,-58.0209,79.47,71,35,3.96,scattered clouds
163,Ormond Beach,US,29.2858,-81.0559,67.28,87,100,10.36,overcast clouds
164,Winslow,US,35.0242,-110.6974,55.58,22,0,4.61,clear sky
165,Corning,US,42.1428,-77.0547,34.21,84,100,14.38,light snow
166,Saint Peters,US,38.8003,-90.6265,27.45,55,100,17.27,overcast clouds
167,Wylie,US,33.0151,-96.5389,53.64,28,0,13.8,clear sky
168,Lake Havasu City,US,34.4839,-114.3224,74.23,15,0,9.22,clear sky
169,Taft,IR,31.7471,54.2088,53.55,28,0,4.61,clear sky
170,Dunmore Town,BS,25.5,-76.65,75.9,81,15,18.37,few clouds
171,Sulphur Springs,US,33.1385,-95.6011,49.95,27,0,14.97,clear sky
172,Saint George,US,37.1041,-113.5841,62.26,16,0,10.36,clear sky
173,Pampa,US,35.5362,-100.9599,49.15,21,4,9.22,clear sky
174,Racine,US,42.7495,-88.0751,24.6,64,100,10.36,overcast clouds
175,Bradford,GB,53.7939,-1.7521,45.48,89,40,19.57,scattered clouds
176,Gallup,US,35.5281,-108.7426,44.44,34,0,1.01,clear sky
177,Lumberton,US,34.6182,-79.0086,57.51,51,0,4.61,clear sky
178,South Lake Tahoe,US,38.9332,-119.9844,50.25,46,0,5.75,clear sky
179,Warrensburg,US,38.7628,-93.7361,28.22,51,100,16.11,overcast clouds
180,Altus,US,34.6381,-99.334,53.67,24,0,12.66,clear sky
181,San Benito,US,36.6166,-121.0844,56.93,49,100,6.24,overcast clouds
182,Santa Rosalia,MX,27.3167,-112.2833,66.2,42,25,7.11,scattered clouds
183,Nacozari,MX,25.3366,-108.2574,72.03,59,91,14.94,light rain
184,Kuna,US,43.4918,-116.4201,54.84,29,0,18.41,clear sky
185,Menasha,US,44.2022,-88.4465,25.48,49,40,14.97,scattered clouds
186,Wilmington,US,34.2257,-77.9447,54.95,79,95,1.01,overcast clouds
187,Cody,US,44.5263,-109.0565,43.2,32,0,18.41,clear sky
188,Eunice,US,30.4944,-92.4176,52.0,60,100,8.03,overcast clouds
189,Muncie,US,40.1934,-85.3864,20.5,78,100,11.01,overcast clouds
190,Grants,US,35.1473,-107.8514,41.23,33,100,10.36,overcast clouds
191,Valle De Allende,MX,26.9333,-105.4,45.45,66,87,18.07,overcast clouds
192,Vernon,CA,50.2581,-119.2691,55.92,37,82,4.0,broken clouds
193,Rosarito,MX,32.3333,-117.0333,74.62,53,37,5.99,scattered clouds
194,Greeneville,US,36.1632,-82.831,41.88,50,86,3.0,overcast clouds
195,San Luis,AR,-33.295,-66.3356,76.28,44,47,5.28,scattered clouds
196,Kincardine,GB,56.0667,-3.7167,45.19,89,90,5.99,overcast clouds
197,Belle Fourche,US,44.6714,-103.8522,40.51,36,0,4.14,clear sky
198,Olean,US,42.0776,-78.4297,27.28,79,100,6.91,overcast clouds
199,Craig,US,40.5153,-107.5464,25.39,54,0,3.44,clear sky
200,Santa Catarina De Tepehuanes,MX,25.35,-105.7333,58.46,48,63,21.12,broken clouds
201,Maryville,US,35.7565,-83.9705,46.6,48,40,10.36,scattered clouds
202,Warrington,GB,53.3925,-2.5802,45.86,85,40,11.5,scattered clouds
203,Greenville,US,35.6127,-77.3663,55.56,60,0,0.0,clear sky
204,Twin Falls,US,42.3505,-114.6445,46.92,31,0,13.8,clear sky
205,Tucumcari,US,35.1717,-103.725,46.94,25,44,4.63,scattered clouds
206,Mason City,US,43.1536,-93.201,21.18,72,0,25.32,clear sky
207,Newark,US,40.7357,-74.1724,49.24,33,0,18.41,clear sky
208,Johnstown,US,40.3267,-78.922,33.31,58,100,14.97,overcast clouds
209,Beeville,US,28.4008,-97.7483,46.98,76,100,0.0,overcast clouds
210,Owosso,US,42.9978,-84.1766,23.14,64,40,20.71,scattered clouds
211,Hailey,US,43.5196,-114.3153,38.89,66,100,5.01,overcast clouds
212,Beech Grove,US,39.722,-86.09,22.21,72,100,20.71,overcast clouds
213,Rio Muerto,MX,27.4167,-110.2333,71.06,37,97,12.48,overcast clouds
214,Pueblo,US,38.2545,-104.6091,48.15,15,0,1.99,clear sky
215,Port Lavaca,US,28.615,-96.6261,52.3,76,100,8.05,overcast clouds
216,Bartlesville,US,36.7473,-95.9808,40.95,31,0,7.0,clear sky
217,Watertown,US,42.3709,-71.1828,48.06,42,0,11.5,clear sky
218,Ledyard,US,41.4398,-72.0142,45.52,54,0,10.36,clear sky
219,Key Largo,US,25.0865,-80.4473,78.8,84,10,1.3,clear sky
220,Santa Maria Del Oro,MX,25.9333,-105.3667,53.53,71,97,17.49,moderate rain
221,Dodge City,US,37.7528,-100.0171,39.94,22,0,18.41,clear sky
222,Mapimi,MX,25.8167,-103.85,60.85,45,80,10.51,light rain
223,Hope,US,33.6671,-93.5916,55.45,47,98,9.82,overcast clouds
224,Clarksburg,US,39.2807,-80.3445,36.05,60,94,13.04,overcast clouds
225,Macon,US,39.8667,-88.9668,22.86,68,100,13.8,overcast clouds
226,Shawnee,US,39.05,-95.7669,31.86,50,100,21.85,overcast clouds
227,Mount Pleasant,US,32.7941,-79.8626,59.05,59,100,13.8,overcast clouds
228,Alamosa,US,37.4695,-105.87,35.58,25,0,0.0,clear sky
229,Esqueda,MX,30.7167,-109.5833,59.43,30,81,16.26,broken clouds
230,Punta Gorda,US,26.9298,-82.0454,77.18,90,99,8.99,overcast clouds
231,Chanute,US,37.6792,-95.4572,35.71,35,100,17.27,overcast clouds
232,Rapid City,US,44.0805,-103.231,38.5,34,0,10.0,clear sky
233,Tooele,US,40.5308,-112.2983,47.32,22,0,9.22,clear sky
234,Belen,TR,36.4891,36.2233,42.94,100,75,4.61,broken clouds
235,Fayetteville,US,35.0527,-78.8784,57.72,43,0,11.5,clear sky
236,Beamsville,CA,43.1668,-79.4829,25.65,70,99,13.8,overcast clouds
237,Boulder,US,40.0833,-105.3505,40.51,21,0,4.61,clear sky
238,Florence,IT,43.7667,11.25,54.23,82,75,3.44,broken clouds
239,Dawson,US,31.7735,-84.4466,51.22,43,92,10.94,overcast clouds
240,Stephenville,US,32.2207,-98.2023,54.14,25,0,11.5,clear sky
241,Newton,US,42.337,-71.2092,47.75,42,0,11.5,clear sky
242,Emmett,US,43.8735,-116.4993,56.57,26,72,1.99,broken clouds
243,Adelanto,US,34.5828,-117.4092,66.2,27,48,8.16,scattered clouds
244,Lufkin,US,31.3382,-94.7291,53.73,49,100,8.16,overcast clouds
245,Del Rio,US,29.3627,-100.8968,42.91,86,100,11.5,overcast clouds
246,Lock Haven,US,41.137,-77.4469,39.09,61,95,12.1,overcast clouds
247,Loreto,MX,22.2667,-101.9667,72.12,13,12,21.77,few clouds
248,Mitchell,US,43.7094,-98.0298,19.38,58,0,16.11,clear sky
249,Victoria,HK,22.2855,114.1577,69.85,86,96,17.0,overcast clouds
250,Summerville,US,33.0185,-80.1757,58.86,66,40,5.75,scattered clouds
251,Dubuque,US,42.4833,-90.8668,24.62,56,20,17.27,few clouds
252,Covington,US,39.0837,-84.5086,28.9,62,67,5.99,broken clouds
253,Junction City,US,39.0286,-96.8314,33.66,38,75,16.11,broken clouds
254,Morgan City,US,29.6994,-91.2068,51.8,40,100,9.22,overcast clouds
255,Opelousas,US,30.5335,-92.0815,51.69,50,0,5.75,clear sky
256,Azle,US,32.8951,-97.5459,53.56,35,0,17.27,clear sky
257,Onalaska,US,43.8844,-91.2351,27.07,46,0,23.02,clear sky
258,Freeport,US,40.6576,-73.5832,50.36,37,75,18.41,broken clouds
259,Sunrise,US,26.1577,-80.2861,82.0,63,75,11.5,broken clouds
260,Sheboygan,US,43.7333,-87.9334,25.29,66,100,13.8,overcast clouds
261,Ensenada,MX,31.8667,-116.6167,63.95,71,34,4.38,scattered clouds
262,Owasso,US,36.2695,-95.8547,43.72,30,20,21.85,few clouds
263,Andros Town,BS,24.7,-77.7667,76.96,77,43,16.78,scattered clouds
264,Snyder,US,32.7179,-100.9176,52.14,20,0,8.05,clear sky
265,Jacksonville,US,30.3322,-81.6556,54.03,86,100,9.22,overcast clouds
266,Ridgetown,CA,42.4334,-81.8998,22.86,51,100,22.21,overcast clouds
267,Cananea,MX,30.95,-110.3,55.2,35,81,14.36,broken clouds
268,Lapeer,US,43.0514,-83.3188,23.0,60,40,16.11,scattered clouds
269,Elwood,AU,-37.8817,144.983,66.33,75,100,5.01,overcast clouds
270,Bakersfield,US,35.3733,-119.0187,73.98,20,0,6.91,clear sky
271,Lovington,US,32.944,-103.3485,49.05,28,100,3.0,overcast clouds
272,Bedford,GB,52.1346,-0.4663,49.71,85,53,12.1,broken clouds
273,Apple Valley,US,34.5008,-117.1859,66.9,26,51,10.6,broken clouds
274,Progreso,MX,21.2833,-89.6667,78.12,83,55,12.08,broken clouds
275,Jefferson City,US,38.5767,-92.1735,26.89,49,100,17.27,overcast clouds
276,Taylorville,US,39.5489,-89.2945,23.79,58,100,20.71,overcast clouds
277,Ruston,US,32.5232,-92.6379,53.42,28,100,8.05,overcast clouds
278,West Plains,US,36.7281,-91.8524,32.92,53,9,3.0,clear sky
279,Camargo,MX,27.6667,-105.1667,40.35,76,91,14.92,overcast clouds
280,Orange Cove,US,36.6244,-119.3137,69.8,40,0,0.0,clear sky
281,Sterling,US,39.0062,-77.4286,50.0,34,20,13.8,few clouds
282,Livingston,GB,55.9029,-3.5226,43.48,91,40,10.36,scattered clouds
283,Kewanee,US,41.2456,-89.9248,23.79,51,100,14.7,light snow
284,Atlantic Beach,US,30.3344,-81.3987,54.05,84,100,5.75,overcast clouds
285,Dumas,US,35.8656,-101.9732,46.62,21,0,0.0,clear sky
286,Hermosillo,MX,29.0667,-110.9667,81.91,23,37,5.01,scattered clouds
287,Jimenez,MX,28.3333,-105.4,38.14,87,100,10.65,light rain
288,Lamar,US,33.6668,-95.5836,48.36,32,0,13.8,clear sky
289,Fort Morgan,US,40.2503,-103.8,41.65,19,0,18.41,clear sky
290,Bernalillo,US,35.05,-106.6673,50.32,36,75,13.8,broken clouds
291,Republic,US,37.12,-93.4802,31.12,43,40,18.41,scattered clouds
292,North Las Vegas,US,36.1989,-115.1175,66.18,13,0,10.36,clear sky
293,Fort Carson,US,38.7375,-104.7889,43.45,27,100,12.66,overcast clouds
294,Kingsville,US,27.5159,-97.8561,50.18,59,100,14.97,overcast clouds
295,Okmulgee,US,35.6234,-95.9605,43.09,21,0,14.97,clear sky
296,Price,US,39.5994,-110.8107,44.11,17,0,9.22,clear sky
297,Lewisville,US,33.0462,-96.9942,53.94,27,0,17.27,clear sky
298,Casa Grande,US,32.8795,-111.7573,73.4,27,0,13.8,clear sky
299,Guadalupe Y Calvo,MX,26.1,-106.9667,44.76,85,82,5.23,light rain
300,Nazareno,MX,25.3833,-103.4167,61.5,49,95,12.17,light rain
301,Topeka,US,39.0483,-95.678,31.78,50,100,21.85,overcast clouds
302,San Antonio,US,29.4241,-98.4936,49.55,63,40,9.22,light rain
303,Guerrero,MX,17.6667,-100.0,77.29,35,37,6.2,scattered clouds
304,Parsons,US,37.3403,-95.2611,36.86,33,46,13.56,scattered clouds
305,Highland Springs,US,37.546,-77.3278,51.39,37,0,3.0,clear sky
306,Puerto Palomas,MX,31.7667,-107.6167,51.76,34,83,18.61,broken clouds
307,La Marque,US,29.3686,-94.9713,55.36,47,100,16.11,overcast clouds
308,Bustamante,MX,26.5333,-100.5,48.45,62,100,6.73,overcast clouds
309,Sycamore,US,41.9889,-88.6868,21.87,64,100,11.5,overcast clouds
310,Albertville,US,34.2676,-86.2089,45.64,43,0,11.5,clear sky
311,Salina,US,38.8403,-97.6114,35.73,34,40,19.57,scattered clouds
312,Ottumwa,US,41.02,-92.4113,25.95,64,100,20.71,overcast clouds
313,Christiansburg,US,37.1298,-80.4089,41.47,39,40,5.75,scattered clouds
314,Plainview,US,40.7765,-73.4673,49.86,43,75,13.8,broken clouds
315,Altar,MX,30.7,-111.8167,73.83,15,19,6.55,few clouds
316,Staunton,US,38.1496,-79.0717,42.89,35,0,11.5,clear sky
317,Fostoria,US,41.157,-83.4169,22.95,64,100,15.99,overcast clouds
318,Wilmington Island,US,32.0036,-80.9737,59.09,47,75,9.22,broken clouds
319,Potam,MX,27.6,-110.3833,70.36,38,89,11.36,overcast clouds
320,Muskegon,US,43.3,-86.1334,24.66,74,100,16.11,light snow
321,Taos,US,36.4072,-105.5731,34.2,50,0,3.44,snow
322,San Felipe,VE,10.3399,-68.7425,68.9,90,22,4.45,few clouds
323,Pineville,US,31.3224,-92.4343,51.73,53,0,4.61,clear sky
324,Madison,US,34.7334,-86.5667,47.62,36,20,11.99,few clouds
325,Dunn,US,44.95,-91.8835,27.16,56,0,13.8,clear sky
326,North Platte,US,41.1239,-100.7654,33.69,32,0,11.01,clear sky
327,Palestine,PS,31.9216,35.2033,49.46,92,56,16.69,broken clouds
328,Altamont,US,42.2068,-121.7372,53.44,35,0,12.66,clear sky
329,Fort Smith,US,35.3859,-94.3986,44.64,32,0,20.71,clear sky
330,Bellevue,US,47.6104,-122.2007,69.15,32,0,9.22,clear sky
331,Cutlerville,US,42.8409,-85.6636,23.04,85,100,14.97,light snow
332,Truth Or Consequences,US,33.1284,-107.2528,48.9,60,100,6.91,overcast clouds
333,San Buenaventura,MX,27.0833,-101.5333,52.72,50,75,17.27,broken clouds
334,Midland,US,31.9974,-102.0779,53.8,24,0,14.97,clear sky
335,Grand Junction,US,39.0639,-108.5507,49.08,20,0,3.44,clear sky
336,Minas De Barroteran,MX,27.6333,-101.2833,41.99,79,100,14.9,overcast clouds
337,Cedartown,US,34.0537,-85.255,48.38,48,61,5.75,broken clouds
338,Hutchinson,US,38.0608,-97.9298,35.55,32,20,16.11,few clouds
339,Naco,MX,31.3347,-109.9483,60.89,37,44,18.59,scattered clouds
340,Gadsden,US,34.0143,-86.0066,50.23,44,0,14.97,clear sky
341,Dover,US,39.1582,-75.5244,48.99,40,0,13.8,clear sky
342,Brenham,US,30.1669,-96.3977,53.51,52,100,4.61,overcast clouds
343,Riverton,US,40.5219,-111.9391,50.49,19,0,13.8,clear sky
344,Carbondale,US,37.7273,-89.2168,32.0,51,40,16.11,scattered clouds
345,Powell,US,40.1578,-83.0752,23.36,64,100,23.02,overcast clouds
346,Merritt Island,US,28.5392,-80.672,78.04,79,100,16.11,overcast clouds
347,Leander,US,30.5788,-97.8531,53.29,42,0,3.0,clear sky
348,Baton Rouge,US,30.4508,-91.1545,52.12,48,100,6.91,overcast clouds
349,Cleburne,US,32.3476,-97.3867,54.03,31,0,12.66,clear sky
350,Sun City West,US,33.662,-112.3413,74.23,22,40,5.75,scattered clouds
351,Monclova,MX,26.9,-101.4167,45.05,67,99,4.0,overcast clouds
352,Rodeo,US,38.033,-122.2669,67.24,69,0,6.91,clear sky
353,Laredo,US,27.5064,-99.5075,46.69,66,100,13.8,overcast clouds
354,Evansville,US,37.9748,-87.5558,30.2,54,100,12.66,overcast clouds
355,Conyers,US,33.6676,-84.0177,50.45,38,0,1.01,clear sky
356,Russellville,US,35.2784,-93.1338,44.74,29,0,16.11,clear sky
357,Ruidoso,US,33.3317,-105.673,37.76,54,100,12.66,overcast clouds
358,Rockingham,US,42.9668,-71.0995,46.71,49,69,1.01,broken clouds
359,Kinston,US,35.2627,-77.5816,55.58,50,0,0.0,clear sky
360,Galveston,US,29.3669,-94.9669,55.36,47,100,16.11,overcast clouds
361,Rock Sound,BS,24.9,-76.2,76.06,77,10,15.32,clear sky
362,Edgewater,US,28.9889,-80.9023,70.03,91,100,11.5,overcast clouds
363,Sylvania,US,41.7189,-83.713,23.02,61,40,21.85,light snow
364,Boone,US,39.0334,-92.3335,26.85,62,100,3.0,overcast clouds
365,Fernley,US,39.608,-119.2518,59.86,19,58,1.99,broken clouds
366,Enid,US,36.3956,-97.8784,42.98,23,0,18.41,clear sky
367,Laramie,US,41.3114,-105.5911,33.53,25,0,16.11,clear sky
368,Centralia,US,46.7162,-122.9543,67.86,35,0,6.91,clear sky
369,Council Bluffs,US,41.2619,-95.8608,27.32,49,40,18.41,scattered clouds
370,Ada,US,43.4166,-116.1262,52.68,28,0,18.41,clear sky
371,General Cepeda,MX,25.3833,-101.45,45.07,53,97,18.92,overcast clouds
372,Cullman,US,34.1748,-86.8436,47.8,36,0,8.05,clear sky
373,Harrisonville,US,38.6533,-94.3488,29.28,58,89,13.98,overcast clouds
374,Madera,US,37.1666,-119.8343,68.09,74,92,3.62,overcast clouds
375,Miami,US,25.7743,-80.1937,82.42,72,75,13.8,broken clouds
376,Lampazos De Naranjo,MX,27.0167,-100.5167,45.32,76,100,12.68,overcast clouds
377,Elko,US,41.0002,-115.5012,41.02,41,3,1.99,clear sky
378,Canon City,US,38.441,-105.2424,45.18,20,75,8.05,broken clouds
379,Spring Hill,US,28.4769,-82.5255,68.23,86,75,8.05,broken clouds
380,Canandaigua,US,42.8742,-77.288,30.33,76,93,11.01,overcast clouds
381,Benjamin Hill,MX,30.1667,-111.1,71.64,18,73,5.19,broken clouds
382,Lemoore,US,36.3008,-119.7829,69.87,49,0,6.91,clear sky
383,Port Hueneme,US,34.1478,-119.1951,73.36,42,0,12.66,clear sky
384,Moctezuma,MX,29.8,-109.6667,73.67,20,94,4.52,overcast clouds
385,Williamsport,US,41.2412,-77.0011,40.73,62,75,18.41,broken clouds
386,Cardinal,CA,44.7834,-75.3826,32.32,51,0,14.97,clear sky
387,Syracuse,IT,37.0881,15.2792,48.31,75,11,3.27,few clouds
388,Payson,US,40.0444,-111.7321,48.04,16,0,10.36,clear sky
389,Oswego,US,43.4501,-76.1497,32.92,66,80,3.0,light snow
390,Carlsbad,US,33.1581,-117.3506,76.39,43,0,11.5,clear sky
391,Chalmette,US,29.9427,-89.9634,54.0,43,100,19.57,overcast clouds
392,New Iberia,US,30.0035,-91.8187,51.87,40,100,5.75,overcast clouds
393,Oro Valley,US,32.3909,-110.9665,71.78,27,81,7.0,broken clouds
394,Chihuahua,MX,28.5,-106.0,37.2,94,100,7.11,overcast clouds
395,Duncan,US,34.5023,-97.9578,51.69,31,0,11.5,clear sky
396,Steamboat Springs,US,40.485,-106.8317,30.0,40,0,3.0,clear sky
397,Cumberland,US,35.0502,-78.8664,57.7,40,0,11.5,clear sky
398,Natchez,US,31.5604,-91.4032,49.44,51,0,6.91,clear sky
399,Praxedis Guerrero,MX,31.3667,-106.0167,50.14,38,98,17.29,overcast clouds
400,Huron,US,41.1501,-82.5499,22.46,76,100,18.05,overcast clouds
401,Brighton,GB,50.8284,-0.1395,48.24,93,62,3.0,broken clouds
402,Norfolk,US,42.1668,-71.2495,47.66,45,98,4.0,overcast clouds
403,Manhattan,US,40.7834,-73.9662,48.94,32,0,18.41,clear sky
404,Sweetwater,US,25.7634,-80.3731,82.0,72,0,11.99,clear sky
405,Montrose,US,38.4166,-108.2673,36.81,40,10,3.11,clear sky
406,Silver City,US,32.7701,-108.2803,46.36,63,0,20.71,clear sky
407,Alamogordo,US,32.8995,-105.9603,45.41,62,100,5.01,overcast clouds
408,Portales,US,34.1862,-103.3344,48.33,29,96,5.06,overcast clouds
409,Atchison,US,39.563,-95.1216,28.58,64,100,14.41,overcast clouds
410,Warner Robins,US,32.621,-83.5999,54.14,44,40,9.22,scattered clouds
411,Ottawa,CA,45.4112,-75.6981,32.43,67,40,23.02,scattered clouds
412,San Jacinto,US,33.7839,-116.9586,73.42,24,38,7.0,scattered clouds
413,Estelle,US,29.8458,-90.1067,54.0,43,100,11.5,overcast clouds
414,Mount Clemens,US,42.5973,-82.878,25.02,76,75,11.5,broken clouds
415,Ojinaga,MX,29.5667,-104.4167,44.42,70,100,13.8,overcast clouds
416,Jenison,US,42.9072,-85.792,24.06,85,100,10.0,snow
417,Sanger,US,36.708,-119.556,69.66,43,0,3.44,clear sky
418,Burley,US,42.5357,-113.7928,48.29,48,0,10.36,clear sky
419,Aylmer,CA,42.7668,-80.983,22.75,58,100,19.42,overcast clouds
420,Fort Myers Beach,US,26.452,-81.9481,77.07,86,100,4.0,overcast clouds
421,Pine Bluff,US,34.2284,-92.0032,51.73,25,0,17.27,clear sky
422,Festus,US,38.2206,-90.396,27.48,41,96,12.55,overcast clouds
423,Berea,US,41.3662,-81.8543,23.61,65,100,17.27,overcast clouds
424,New Ulm,US,44.3125,-94.4605,17.98,71,0,20.71,clear sky
425,Crossville,US,35.949,-85.0269,40.1,50,75,11.5,broken clouds
426,Carrollton,US,32.9537,-96.8903,53.94,26,0,17.27,clear sky
427,Fruitville,US,27.3298,-82.4576,75.92,69,0,11.5,clear sky
428,Wichita,US,37.6922,-97.3375,37.45,31,20,23.02,few clouds
429,Alexander City,US,32.944,-85.9539,49.5,55,95,5.66,overcast clouds
430,Coralville,US,41.6764,-91.5805,25.43,60,100,17.27,overcast clouds
431,Columbus,US,39.9612,-82.9988,24.71,63,100,20.71,overcast clouds
432,Big Spring,US,32.2504,-101.4787,52.25,24,0,12.66,clear sky
433,Idaho Falls,US,43.4666,-112.0341,34.0,64,0,5.75,clear sky
434,Santa Ana,US,33.7456,-117.8678,77.02,28,100,9.22,overcast clouds
435,Waterloo,CA,43.4668,-80.5164,20.01,70,0,17.27,clear sky
436,Tehachapi,US,35.1322,-118.449,58.64,33,84,10.0,broken clouds
437,Sheridan,US,44.8333,-106.9173,39.58,52,0,4.61,clear sky
438,Virginia Beach,US,36.8529,-75.978,52.02,72,40,8.05,scattered clouds
439,Listowel,IE,52.4464,-9.485,40.71,77,29,4.38,scattered clouds
440,Prescott Valley,US,34.5894,-112.3252,57.25,26,0,6.91,clear sky
441,Morris,US,40.8334,-74.5329,45.63,38,40,10.36,scattered clouds
442,Sioux City,US,42.5,-96.4003,22.59,60,0,21.85,clear sky
443,Jupiter,US,26.9342,-80.0942,82.45,74,75,4.61,broken clouds
444,Mountain Home,US,43.133,-115.6912,52.43,31,0,19.57,clear sky
445,Sunrise Manor,US,36.2111,-115.0731,66.29,12,0,10.36,clear sky
446,Chino Valley,US,34.7575,-112.4538,58.68,25,0,6.91,clear sky
447,Miami Beach,US,25.7906,-80.1301,82.42,71,75,13.8,broken clouds
448,Ridgecrest,US,35.6225,-117.6709,66.06,20,0,9.22,clear sky
449,Pittsburg,US,38.028,-121.8847,67.66,65,0,6.91,clear sky
450,Port Charlotte,US,26.9762,-82.0906,78.85,87,0,12.66,clear sky
451,Huntsville,US,34.7304,-86.5861,46.81,36,0,11.01,clear sky
452,Nueva Rosita,MX,27.95,-101.2167,40.55,88,100,11.83,overcast clouds
453,East Chicago,US,41.6392,-87.4548,23.05,70,75,10.36,broken clouds
454,Henderson,US,36.0397,-114.9819,66.22,14,0,9.22,clear sky
455,Pendleton,US,45.6721,-118.7886,65.8,27,0,13.0,clear sky
456,Anahuac,MX,27.2333,-100.15,45.5,77,100,18.45,overcast clouds
457,Olive Branch,US,34.9618,-89.8295,44.28,35,40,17.27,scattered clouds
458,Palau,PW,7.503,134.621,82.74,74,94,12.8,overcast clouds
459,Madisonville,US,37.3281,-87.4989,34.21,51,79,5.01,broken clouds
460,Spearfish,US,44.4908,-103.8594,38.28,20,0,4.61,clear sky
461,Mechanicsville,US,37.6088,-77.3733,51.33,37,66,3.0,broken clouds
462,Evans,US,33.5337,-82.1307,54.61,46,97,4.0,overcast clouds
463,Cocoa Beach,US,28.32,-80.6076,78.06,83,20,6.91,few clouds
464,Carthage,TN,36.8611,10.3316,58.53,82,20,3.44,few clouds
465,Fort Stewart,US,31.8722,-81.61,58.87,54,40,8.05,scattered clouds
466,Wooster,US,40.8051,-81.9351,22.28,78,75,18.41,broken clouds
467,Horn Lake,US,34.9554,-90.0348,44.58,37,75,17.27,broken clouds
468,Seymour,US,38.9592,-85.8903,27.32,66,85,8.99,overcast clouds
469,Castanos,MX,26.7833,-101.4167,43.34,67,99,12.41,overcast clouds
470,Cadillac,US,44.2519,-85.4012,17.51,79,100,13.8,light snow
471,Mulege,MX,26.8833,-111.9833,69.1,44,35,9.37,scattered clouds
472,Greensburg,US,40.3015,-79.5389,32.63,54,85,15.99,overcast clouds
473,Levelland,US,33.5873,-102.378,50.2,23,94,6.78,overcast clouds
474,Selma,US,36.5708,-119.6121,69.85,45,0,0.0,clear sky
475,Soddy-Daisy,US,35.2359,-85.1908,47.93,45,98,10.94,overcast clouds
476,Brookhaven,US,31.5791,-90.4407,47.86,65,100,4.9,overcast clouds
477,Yankton,US,42.8711,-97.3973,21.45,58,0,19.57,clear sky
478,Creel,MX,27.75,-107.6333,44.76,81,98,8.93,moderate rain
479,Bossier City,US,32.516,-93.7321,55.58,30,0,17.27,clear sky
480,Culpeper,US,38.5004,-77.9664,50.92,20,0,0.0,clear sky
481,Portland,US,45.5234,-122.6762,68.81,33,40,6.91,scattered clouds
482,Rodney,CA,42.5668,-81.6831,22.86,56,100,20.92,overcast clouds
483,Cape Canaveral,US,28.4058,-80.6048,78.03,82,75,6.91,broken clouds
484,Chatham,GB,51.3789,0.5279,49.19,93,30,3.0,scattered clouds
485,Dyersburg,US,36.0345,-89.3856,42.94,36,40,14.97,scattered clouds
486,Panama City,PA,8.9936,-79.5197,85.95,79,40,10.36,moderate rain
487,Blackfoot,US,43.1905,-112.345,44.38,73,77,3.87,broken clouds
488,Obregon,NI,11.9566,-85.9636,87.89,66,52,5.12,broken clouds
489,Scottsbluff,US,41.8666,-103.6672,43.92,20,0,6.91,clear sky
490,Saint Albans,GB,51.75,-0.3333,48.9,94,20,10.36,few clouds
491,Little Rock,US,34.7465,-92.2896,46.36,31,25,9.37,scattered clouds
492,Defiance,US,41.3334,-84.45,21.45,63,100,12.66,overcast clouds
493,Artesia,US,33.8658,-118.0831,77.23,29,0,9.22,clear sky
494,Grand Bend,CA,43.3168,-81.7498,23.22,63,100,28.03,light snow
495,Primo Tapia,MX,32.22,-116.9172,72.95,53,35,6.15,scattered clouds
496,Mansfield,GB,53.1333,-1.2,45.79,84,88,5.99,overcast clouds
497,Lamesa,US,32.7376,-101.951,50.52,21,74,11.83,broken clouds
498,Emporia,US,38.4039,-96.1817,34.0,32,100,19.57,overcast clouds
499,Bloomingdale,US,27.8936,-82.2404,72.25,76,40,8.05,scattered clouds
500,Ramos Arizpe,MX,25.55,-100.9667,45.95,50,97,15.41,overcast clouds
501,Etchoropo,MX,26.7667,-109.6667,75.42,55,100,13.09,overcast clouds
502,Chester,US,40.1254,-75.8749,44.08,43,0,3.44,clear sky
503,Fredericksburg,US,38.3032,-77.4605,52.34,32,0,4.61,clear sky
504,Kendallville,US,41.4414,-85.265,20.8,78,0,17.27,clear sky
505,Caborca,MX,30.5838,-111.101,71.67,19,26,8.16,scattered clouds
506,Muscatine,US,41.4667,-91.1335,24.64,59,100,14.97,overcast clouds
507,Moberly,US,39.4184,-92.4382,26.58,56,100,14.97,overcast clouds
508,Gainesville,US,29.6516,-82.3248,53.74,79,75,3.44,broken clouds
509,Fort Dodge,US,42.4975,-94.168,24.8,50,0,14.97,clear sky
510,Willmar,US,45.1219,-95.0433,15.82,73,0,17.27,clear sky
511,Garden City,US,42.3256,-83.331,23.9,67,100,21.85,overcast clouds
512,Muskogee,US,35.5834,-95.3336,43.34,31,0,14.97,clear sky
513,Sierra Vista,US,31.5545,-110.3037,62.2,30,40,14.97,scattered clouds
514,Lockhart,US,28.6194,-81.4426,75.94,81,100,11.5,overcast clouds
515,Aliquippa,US,40.6367,-80.2401,33.93,53,100,13.8,overcast clouds
516,Wharton,US,29.3116,-96.1027,52.99,66,100,6.91,overcast clouds
517,Vicksburg,US,32.3526,-90.8779,53.28,40,0,0.0,clear sky
518,Conway,US,35.0887,-92.4421,46.38,25,0,17.27,clear sky
519,Rome,US,34.257,-85.1647,48.51,48,54,1.01,broken clouds
520,Clinton,US,42.587,-82.9199,23.95,76,75,11.5,broken clouds
521,Hannibal,US,39.7084,-91.3585,27.52,54,100,17.27,overcast clouds
522,West Columbia,US,33.9935,-81.074,57.02,51,75,9.22,broken clouds
523,Lynn Haven,US,30.2455,-85.6483,52.05,58,100,6.91,overcast clouds
524,Exeter,GB,50.7236,-3.5275,45.99,89,68,10.45,broken clouds
525,Weatherford,US,32.7593,-97.7972,53.26,30,73,7.0,broken clouds
526,Orangeburg,US,33.4918,-80.8557,57.16,63,0,6.91,clear sky
527,Shreveport,US,32.5251,-93.7502,55.62,30,0,17.27,clear sky
528,Grand Island,US,40.925,-98.342,29.19,40,0,13.8,clear sky
529,Beckley,US,37.7782,-81.1882,35.67,57,100,7.0,overcast clouds
530,Fond Du Lac,US,43.775,-88.4388,24.98,54,75,19.57,broken clouds
531,La Joya,MX,18.6667,-99.4667,87.39,32,58,5.59,broken clouds
532,Salisbury,GB,51.0693,-1.7957,49.64,92,100,8.05,drizzle
533,Laurel,US,39.0993,-76.8483,50.4,33,0,12.66,clear sky
534,Deming,US,32.2687,-107.7586,48.09,49,75,14.97,broken clouds
535,Wellington,NZ,-41.2866,174.7756,71.26,74,32,5.99,scattered clouds
536,Allende,MX,25.2833,-100.0167,51.93,54,42,10.85,scattered clouds
537,Bristol,US,41.8334,-71.1662,47.77,47,100,7.0,overcast clouds
538,Wisconsin Rapids,US,44.3836,-89.8174,26.89,42,0,23.02,clear sky
539,Galesburg,US,40.9478,-90.3712,24.03,75,100,14.97,overcast clouds
540,Laguna Beach,US,33.5423,-117.7831,77.34,30,100,5.75,overcast clouds
541,South Venice,US,27.0531,-82.4243,76.98,87,0,12.66,clear sky
542,Plainfield,US,40.6168,-74.4173,48.88,35,0,14.97,clear sky
543,Kerrville,US,30.0474,-99.1403,42.53,84,100,3.44,overcast clouds
544,Fort Madison,US,40.6298,-91.3151,25.48,63,100,10.36,overcast clouds
545,Corinth,GR,37.9407,22.9573,50.9,74,47,3.27,scattered clouds
546,Ocampo,MX,21.65,-101.5,68.54,21,48,20.4,scattered clouds
547,Elizabethtown,US,37.694,-85.8591,31.59,51,40,11.5,scattered clouds
548,Portsmouth,GB,50.799,-1.0913,50.13,95,53,9.51,broken clouds
549,Forest Hills,US,42.9595,-85.4898,22.15,84,100,14.97,light snow
550,Los Lunas,US,34.8062,-106.7334,50.65,35,90,4.0,overcast clouds
551,Wichita Falls,US,33.9137,-98.4934,51.93,30,0,12.66,clear sky
552,Marmora,IT,44.4583,7.094,41.13,90,100,2.24,overcast clouds
553,Fort Pierce,US,27.4467,-80.3256,84.25,63,0,5.75,clear sky
554,Hobe Sound,US,27.0595,-80.1364,82.98,73,80,10.27,broken clouds
555,Hollins,US,37.3413,-79.9431,45.25,36,37,3.0,scattered clouds
556,Van Buren,US,35.4368,-94.3483,44.62,33,0,20.71,clear sky
557,Charleston,US,32.7766,-79.9309,59.07,59,100,13.8,overcast clouds
558,Roswell,US,34.0232,-84.3616,49.87,40,0,13.8,clear sky
559,Santa Barbara,US,34.7333,-120.0343,60.33,39,0,10.36,clear sky
560,Live Oak,US,36.9836,-121.9805,69.6,73,0,6.91,clear sky
561,California City,US,35.1258,-117.9859,64.18,23,0,6.91,clear sky
562,Saint Cloud,US,45.5608,-94.1625,23.34,53,0,13.8,clear sky
563,Paragould,US,36.0584,-90.4973,42.62,52,26,12.82,scattered clouds
564,Oconomowoc,US,43.1117,-88.4993,24.26,55,75,10.36,broken clouds
565,Crawfordsville,US,40.0411,-86.8745,20.84,48,100,15.19,overcast clouds
566,Elizabeth City,US,36.2946,-76.2511,49.01,83,0,5.75,clear sky
567,Gustavo Diaz Ordaz,MX,26.2333,-98.5833,57.09,50,86,16.75,overcast clouds
568,Santa Isabel,BR,-23.3156,-46.2214,72.7,98,5,1.52,clear sky
569,Forest Acres,US,34.0193,-80.9898,56.98,52,0,9.22,clear sky
570,Delhi,IN,28.6667,77.2167,62.69,94,40,0.0,mist
571,Platteville,US,42.7342,-90.4785,24.24,58,100,12.66,overcast clouds
572,Mantua,IT,45.1667,10.7833,49.24,85,97,3.0,overcast clouds
573,Jonesboro,US,35.8423,-90.7043,42.57,33,0,12.66,clear sky
574,Oak Ridge,US,36.0104,-84.2696,46.49,42,75,5.75,broken clouds
575,Saint Pete Beach,US,27.7253,-82.7412,71.2,80,75,14.97,broken clouds
576,Paris,FR,48.8534,2.3488,54.37,86,75,8.05,broken clouds
577,Lake City,US,30.1897,-82.6393,49.86,93,100,3.44,light rain
578,Susanville,US,40.4163,-120.653,53.44,40,0,5.75,clear sky
579,Tallmadge,US,41.1015,-81.4418,21.61,66,40,19.57,scattered clouds
580,Canyon,US,34.9803,-101.9188,49.51,26,21,6.62,few clouds
581,Ahome,MX,25.9167,-109.1833,70.68,54,26,12.55,scattered clouds
582,Owensboro,US,37.7742,-87.1133,31.26,46,67,13.6,broken clouds
583,Battle Creek,US,42.3212,-85.1797,19.78,60,100,10.36,snow
584,Casas Grandes,MX,30.3667,-107.95,43.57,64,100,12.82,overcast clouds
585,Sutton,GB,51.35,-0.2,48.58,94,42,3.0,scattered clouds
586,Tucson,US,32.2217,-110.9265,71.98,27,0,13.8,clear sky
587,Roanoke Rapids,US,36.4615,-77.6542,52.38,70,0,0.0,clear sky
588,Hanford,US,36.3275,-119.6457,70.41,48,0,0.0,clear sky
589,Porterville,US,36.0652,-119.0168,71.55,40,0,6.91,clear sky
590,Cimarron Hills,US,38.8586,-104.6989,40.53,22,0,12.66,clear sky
591,Arteaga,MX,18.4667,-102.4167,73.09,32,0,8.5,clear sky
592,Edwardsville,US,38.8114,-89.9532,26.58,59,100,16.11,overcast clouds
593,Ken Caryl,US,39.5773,-105.1169,45.0,16,9,4.0,clear sky
594,Streator,US,41.1209,-88.8354,21.99,72,100,5.99,overcast clouds
595,Estacion Coahuila,MX,32.1939,-115.0017,76.57,12,1,4.81,clear sky
596,Goose Creek,US,32.981,-80.0326,58.96,63,98,8.01,overcast clouds
597,Rock Springs,US,41.5875,-109.2029,35.04,47,0,10.36,clear sky
598,Channahon,US,41.4295,-88.2287,23.16,78,100,14.97,overcast clouds
599,Brigham City,US,41.5102,-112.0155,48.22,44,0,11.5,clear sky
600,Bloomfield,US,40.8068,-74.1854,48.97,33,0,18.41,clear sky
601,Brandon,US,27.9378,-82.2859,72.25,79,40,8.99,scattered clouds
602,Port Huron,US,42.9709,-82.4249,25.03,69,75,12.66,light snow
603,Goderich,CA,43.7501,-81.7165,26.91,80,100,24.16,light snow
604,Uniontown,US,39.9001,-79.7164,33.46,44,81,3.0,broken clouds
605,Spring Valley,US,36.108,-115.245,64.35,14,20,9.22,few clouds
606,Ironton,US,38.5368,-82.6829,38.08,42,75,13.8,broken clouds
607,Tilbury,GB,51.4625,0.3586,49.37,91,17,7.29,few clouds
608,Clarksdale,US,34.2001,-90.5709,46.9,36,0,10.36,clear sky
609,Lake Charles,US,30.2131,-93.2044,53.6,43,0,10.36,clear sky
610,Altoona,US,40.5187,-78.3947,34.81,80,89,5.01,overcast clouds
611,Blythe,US,33.6103,-114.5964,75.04,12,31,4.99,scattered clouds
612,Cocorit,MX,27.5833,-109.9667,74.62,41,86,10.6,overcast clouds
613,Imuris,MX,30.7833,-110.8667,69.1,21,79,2.13,broken clouds
614,Fairhope,US,30.523,-87.9033,54.05,49,75,11.5,broken clouds
615,Crestview,US,30.7621,-86.5705,51.71,66,100,4.0,overcast clouds
616,Golden,US,39.7555,-105.2211,45.88,18,20,7.0,few clouds
617,Piney Green,US,34.716,-77.3202,55.58,64,0,4.61,clear sky
618,Martin,US,27.0837,-80.4164,82.94,66,70,8.34,broken clouds
619,Las Cruces,US,32.3123,-106.7783,52.56,34,97,10.0,overcast clouds
620,Creemore,CA,44.327,-80.1075,21.34,82,96,15.39,light snow
621,Rio Bravo,MX,25.9833,-98.1,57.11,46,81,16.98,broken clouds
622,Newberry,US,34.2746,-81.6187,54.46,47,85,10.4,overcast clouds
623,San Blas,MX,21.5167,-105.2667,76.48,56,0,4.76,clear sky
624,Sugar Land,US,29.6197,-95.6349,54.21,47,75,9.22,broken clouds
625,Abilene,US,32.4487,-99.7331,53.82,26,20,6.91,few clouds
626,Chicago,US,41.85,-87.65,23.76,62,75,14.97,broken clouds
627,Bainbridge,US,47.6262,-122.5212,69.21,33,0,6.91,clear sky
628,West Odessa,US,31.8424,-102.4988,53.06,26,88,16.4,overcast clouds
629,Pataskala,US,39.9956,-82.6743,24.35,62,100,20.71,overcast clouds
630,Raton,US,36.9034,-104.4391,40.32,14,0,13.8,clear sky
631,Fulton,US,33.7668,-84.4499,50.41,36,0,13.8,clear sky
632,New Port Richey,US,28.2442,-82.7193,68.38,85,100,5.99,overcast clouds
633,Leeds,GB,53.7964,-1.5477,46.33,86,85,1.01,overcast clouds
634,Lander,US,42.833,-108.7307,32.97,50,0,3.44,clear sky
635,Neenah,US,44.1858,-88.4626,25.56,48,40,14.97,scattered clouds
636,Sulphur,US,30.2366,-93.3774,53.58,44,75,9.22,broken clouds
637,Brookings,US,44.3114,-96.7984,15.8,69,0,16.11,clear sky
638,Pleasanton,US,37.6624,-121.8747,67.48,65,0,10.36,clear sky
639,Ontario,US,34.0633,-117.6509,74.01,24,75,9.22,broken clouds
640,Graham,US,47.0529,-122.2943,66.29,33,0,8.99,clear sky
641,Elmira,US,42.0898,-76.8077,36.19,72,100,18.41,snow
642,West Monroe,US,32.5185,-92.1476,55.4,33,0,12.66,clear sky
643,Lincolnton,US,35.4737,-81.2545,51.66,29,0,6.91,clear sky
644,Normal,US,40.5142,-88.9906,22.28,75,100,23.0,overcast clouds
645,San Angelo,US,31.4638,-100.437,54.95,30,100,8.05,overcast clouds
646,Ramona,US,33.0417,-116.8681,72.75,29,0,11.5,clear sky
647,Pella,RU,59.7775,30.8181,39.25,77,100,12.21,overcast clouds
648,Preston,GB,53.7667,-2.7167,44.89,87,65,14.88,broken clouds
649,Port Saint Lucie,US,27.2939,-80.3503,84.22,59,95,1.99,overcast clouds
650,Bastrop,US,32.7562,-91.8724,55.08,33,0,6.91,clear sky
651,Winona,US,43.9666,-91.7668,24.93,45,0,14.97,clear sky
652,Lindsay,US,36.203,-119.0882,71.8,42,0,6.91,clear sky
653,Castle Rock,US,39.3722,-104.8561,42.08,20,0,8.01,clear sky
654,Kingsland,US,30.8,-81.6898,56.91,94,100,2.3,overcast clouds
655,De Land,US,29.0283,-81.3031,69.8,83,100,11.5,overcast clouds
656,Alamos,MX,27.0167,-108.9333,67.84,62,97,4.88,light rain
657,Cookeville,US,36.1628,-85.5016,41.81,47,0,9.22,clear sky
658,Fergus,US,47.3,-109.2674,43.18,53,19,7.92,few clouds
659,Annapolis,US,38.9785,-76.4922,51.19,35,0,10.36,clear sky
660,Natchitoches,US,31.7668,-93.1335,55.38,33,0,13.8,clear sky
661,Jensen Beach,US,27.2545,-80.2298,84.25,61,92,1.99,overcast clouds
662,El Dorado,US,38.7666,-120.5177,59.52,52,100,4.41,overcast clouds
663,Sonoita,MX,31.85,-112.8333,72.75,13,56,5.03,broken clouds
664,Saginaw,US,43.3334,-84.0333,23.65,77,40,23.02,scattered clouds
665,Buckeye,US,33.3703,-112.5838,76.41,18,0,10.36,clear sky
666,Toccoa,US,34.5773,-83.3324,51.37,31,0,9.22,clear sky
667,Ascension,US,30.2169,-90.9001,52.27,50,100,4.61,overcast clouds
668,Kannapolis,US,35.4874,-80.6217,52.83,25,0,6.91,clear sky
669,Canton,CN,23.1167,113.25,70.88,68,93,10.89,overcast clouds
670,Naples,IT,40.8333,14.25,53.85,87,0,2.3,clear sky
671,Macomb,US,40.4592,-90.6718,23.02,65,100,20.71,overcast clouds
672,Nuevo Casas Grandes,MX,30.4167,-107.9167,44.91,61,100,14.16,overcast clouds
673,Cannington,AU,-32.0167,115.95,67.77,68,0,27.63,clear sky
674,Torrington,US,41.8007,-73.1212,44.78,64,76,3.83,broken clouds
675,Cedar Lake,US,41.3648,-87.4411,21.78,70,100,14.18,overcast clouds
676,Port Stanley,FK,-51.7,-57.85,46.2,77,95,13.76,overcast clouds
677,Great Bend,US,38.3645,-98.7648,36.03,29,0,16.11,clear sky
678,Saint Thomas,BB,13.1833,-59.5833,76.32,61,20,16.11,few clouds
679,Fort Walton Beach,US,30.4058,-86.6188,52.99,56,100,13.8,overcast clouds
680,Hagerstown,US,39.6418,-77.72,44.58,39,73,11.01,broken clouds
681,Valdosta,US,30.8327,-83.2785,50.04,66,100,6.91,overcast clouds
682,Ponca City,US,36.707,-97.0856,41.02,28,0,19.57,clear sky
683,Lubbock,US,33.6001,-101.8338,52.05,24,40,8.05,scattered clouds
684,Panaba,MX,21.2833,-88.2667,78.85,76,58,10.67,broken clouds
685,Las Vegas,US,36.175,-115.1372,65.64,13,0,10.36,clear sky
686,Key West,US,24.5557,-81.7826,80.6,67,0,3.44,clear sky
687,Meridian,US,43.6121,-116.3915,55.15,29,0,18.41,clear sky
688,Amherstburg,CA,42.1168,-83.0499,24.85,63,40,19.57,scattered clouds
689,Gulfport,US,30.3674,-89.0928,53.65,44,75,13.8,broken clouds
690,Bay Saint Louis,US,30.3088,-89.33,51.87,47,100,5.75,overcast clouds
691,San Fernando,PH,15.0286,120.6898,78.53,66,2,4.99,clear sky
692,Saraland,US,30.8207,-88.0706,54.32,43,99,7.99,overcast clouds
693,Los Alamos,US,35.8881,-106.307,37.58,71,100,4.61,snow
694,Somerset,US,40.5668,-74.5496,48.65,36,0,8.05,clear sky
695,Badiraguato,MX,25.3667,-107.5167,76.39,40,93,4.47,light rain
696,Alice,US,27.7523,-98.0697,49.44,70,100,18.41,overcast clouds
697,Quincy,US,42.2529,-71.0023,48.15,44,20,10.36,few clouds
698,Tifton,US,31.4505,-83.5085,49.96,53,100,10.36,overcast clouds
699,Camp Verde,US,34.5636,-111.8543,64.18,20,73,3.96,broken clouds
700,Poplar Bluff,US,36.757,-90.3929,40.77,36,0,16.11,clear sky
701,Yucca Valley,US,34.1142,-116.4322,66.65,25,17,11.01,few clouds
702,El Campo,US,29.1966,-96.2697,52.09,62,100,6.91,overcast clouds
703,Richmond Hill,CA,43.8711,-79.4372,23.49,56,99,14.34,overcast clouds
704,Destin,US,30.3935,-86.4958,51.96,55,100,13.8,overcast clouds
705,Valley Station,US,38.1112,-85.8702,32.65,53,50,5.99,scattered clouds
706,Indiana,US,40.0003,-86.2503,21.94,72,100,16.11,overcast clouds
707,Rio Rancho,US,35.2334,-106.6645,49.14,38,75,8.05,broken clouds
708,Norwich,GB,52.6278,1.2983,49.24,91,75,6.91,broken clouds
709,Topolobampo,MX,25.6,-109.05,70.95,58,57,13.67,broken clouds
710,Tahlequah,US,35.9154,-94.97,42.08,24,0,12.66,clear sky
711,Peru,US,40.7537,-86.0689,21.69,70,100,18.41,overcast clouds
712,Guadalupe Victoria,MX,32.2869,-115.105,76.73,12,2,5.84,clear sky
713,Statesboro,US,32.4488,-81.7832,55.2,43,40,4.61,scattered clouds
714,Peoria,US,40.7667,-89.7668,23.31,70,100,13.8,overcast clouds
715,Safford,US,32.834,-109.7076,61.75,32,97,8.01,overcast clouds
716,Marysville,US,48.0518,-122.1771,68.34,37,0,6.91,clear sky
717,Cleveland,US,41.4995,-81.6954,24.1,63,100,17.27,overcast clouds
718,Clearwater,US,27.9659,-82.8001,69.03,80,100,17.27,overcast clouds
719,Mission,US,26.2159,-98.3253,57.04,47,100,14.97,overcast clouds
720,Erie,US,42.7667,-78.6664,25.12,70,84,17.0,light snow
721,Borger,NL,52.9233,6.7931,51.01,90,98,7.74,overcast clouds
722,Redmond,US,47.674,-122.1215,69.44,33,5,8.99,clear sky
723,Alpena,US,45.0617,-83.4327,17.92,75,100,14.97,overcast clouds
724,Batavia,US,41.85,-88.3126,23.14,67,100,8.99,overcast clouds
725,Bend,US,44.0582,-121.3153,58.86,33,0,17.27,clear sky
726,Brownfield,US,33.1812,-102.2744,50.95,21,82,9.17,broken clouds
727,Rogers,US,36.3668,-95.5836,42.93,32,0,13.8,clear sky
728,Villa Union,MX,23.2,-106.2333,75.9,74,96,9.04,overcast clouds
729,Jerome,US,42.7241,-114.5186,49.68,52,0,19.57,clear sky
730,Pinehurst,US,35.1954,-79.4695,56.5,54,0,4.61,clear sky
731,Hermitage,US,41.2334,-80.4487,26.53,79,100,16.11,overcast clouds
732,Beaufort,MY,5.3473,115.7455,77.99,84,74,3.09,broken clouds
733,Sinaloa,MX,25.0,-107.5,80.89,34,89,8.57,overcast clouds
734,Bryan,US,30.6744,-96.37,53.49,48,100,6.91,overcast clouds
735,West Helena,US,34.5507,-90.6418,46.08,50,83,13.6,broken clouds
736,Pontiac,US,42.6389,-83.2911,22.84,77,75,16.11,broken clouds
737,Mocorito,MX,25.4833,-107.9167,76.33,46,93,7.94,light rain
738,General Teran,MX,25.2667,-99.6833,54.46,47,35,16.6,scattered clouds
739,Portage,US,41.1667,-81.1998,23.07,61,75,14.97,broken clouds
740,Adolfo Lopez Mateos,MX,28.4667,-107.3,37.92,98,100,4.09,light rain
741,Aberdeen,GB,57.1437,-2.0981,44.55,96,63,3.44,broken clouds
742,Alma,CA,48.5501,-71.6491,33.93,80,76,2.57,broken clouds
743,Hershey,US,40.2859,-76.6503,44.85,38,80,11.01,broken clouds
744,Sedona,US,34.8697,-111.761,59.67,27,0,8.05,clear sky
745,Prescott,US,34.54,-112.4685,56.21,26,0,6.91,clear sky
746,Bahia Honda,CU,22.9036,-83.1592,77.13,75,32,8.08,light rain
747,Hobbs,US,32.7026,-103.136,49.82,22,98,5.01,overcast clouds
748,Dana Point,US,33.467,-117.6981,75.74,44,67,3.0,broken clouds
749,Anderson,US,34.5334,-82.6499,54.23,31,0,16.11,clear sky
750,Rockport,US,28.0206,-97.0544,51.84,93,100,17.27,light rain
751,North Ogden,US,41.3072,-111.9602,47.88,35,0,8.01,clear sky
752,Huntington,US,38.4193,-82.4452,38.61,43,74,1.01,broken clouds
753,Fortuna Foothills,US,32.6578,-114.4119,78.28,15,0,10.36,clear sky
754,Zephyrhills,US,28.2336,-82.1812,75.09,83,100,13.8,overcast clouds
755,Chambersburg,US,39.9376,-77.6611,43.2,43,83,10.0,broken clouds
756,Maryland Heights,US,38.7131,-90.4298,27.14,55,100,5.99,overcast clouds
757,Lynchburg,US,37.4138,-79.1423,51.28,23,0,6.91,clear sky
758,Eloy,US,32.7559,-111.5548,73.26,26,92,3.76,overcast clouds
759,West Lorne,CA,42.6001,-81.5998,22.68,52,100,21.99,overcast clouds
760,Ithaca,US,42.4406,-76.4966,37.49,80,75,8.05,light snow
761,Barstow,US,34.8986,-117.0228,66.16,19,35,10.96,scattered clouds
762,Hopkinsville,US,36.8656,-87.4886,37.44,58,83,13.42,broken clouds
763,Huntington Beach,US,33.6603,-117.9992,77.31,38,100,6.91,overcast clouds
764,Nampa,US,43.5407,-116.5635,55.47,29,0,16.11,clear sky
765,Gardendale,US,33.6601,-86.8128,50.43,47,75,13.8,broken clouds
766,Winder,US,33.9926,-83.7202,49.75,34,0,5.75,clear sky
767,Isla Vista,US,34.4133,-119.861,67.98,51,0,6.91,clear sky
768,Brockville,CA,44.5834,-75.6826,32.29,66,41,4.0,scattered clouds
769,Hilton Head Island,US,32.2163,-80.7526,59.11,57,100,8.05,overcast clouds
770,Adrian,US,41.8975,-84.0372,21.33,70,75,14.97,broken clouds
771,Batesville,US,35.7698,-91.641,42.44,33,0,10.36,clear sky
772,Hammond,US,41.5834,-87.5,23.14,70,75,10.36,broken clouds
773,Fenelon Falls,CA,44.5334,-78.7496,24.03,62,100,13.89,overcast clouds
774,Carpinteria,US,34.3989,-119.5185,70.29,43,99,2.1,overcast clouds
775,Fremont,US,37.5483,-121.9886,68.52,65,0,8.05,clear sky
776,Burkburnett,US,34.0979,-98.5706,52.48,32,16,1.99,few clouds
777,Warren,US,39.4334,-84.1666,27.03,66,100,18.41,overcast clouds
778,Cross Lanes,US,38.4204,-81.7907,39.58,48,75,17.27,broken clouds
779,Cudahy,US,33.9606,-118.1853,76.51,28,0,8.05,clear sky
780,Monticello,US,45.3055,-93.7941,23.95,48,0,13.8,clear sky
781,Paducah,US,37.0834,-88.6001,37.45,43,40,6.91,scattered clouds
782,Brantford,CA,43.1334,-80.2664,22.41,62,100,4.0,overcast clouds
783,Guaymas,MX,27.9333,-110.9,78.89,44,73,13.51,broken clouds
784,Bogalusa,US,30.791,-89.8487,51.85,54,100,3.44,overcast clouds
785,Garcia,MX,25.8167,-100.5833,58.37,49,98,14.63,overcast clouds
786,Beatrice,US,40.2681,-96.747,30.18,43,75,16.11,broken clouds
787,Shelby,US,35.2001,-89.8668,44.69,39,40,13.8,scattered clouds
788,Middle River,US,39.3343,-76.4394,50.04,32,34,8.01,scattered clouds
789,Hidalgo,MX,20.5,-99.0,51.91,90,33,10.58,scattered clouds
790,Nassau,US,40.7507,-73.5829,48.97,36,72,5.99,broken clouds
791,Jennings,US,38.7192,-90.2604,27.12,58,98,5.99,overcast clouds
792,Tarboro,US,35.8968,-77.5358,53.51,53,0,0.0,clear sky
793,Spencer,US,43.1414,-95.1444,21.7,75,70,13.8,broken clouds
794,Abbeville,FR,50.1,1.8333,45.48,96,71,6.49,broken clouds
795,Boulder City,US,35.9786,-114.8325,62.28,13,0,8.05,clear sky
796,Bayonet Point,US,28.3267,-82.6834,68.36,86,100,5.01,overcast clouds
797,Paradise,US,36.0972,-115.1467,64.06,14,20,9.22,few clouds
798,Clemson,US,34.6834,-82.8374,54.28,31,0,12.66,clear sky
799,Durham,US,36.0335,-78.8664,53.44,43,18,1.99,few clouds
800,Fountain Hills,US,33.6117,-111.7174,72.73,26,40,6.91,scattered clouds
801,Yazoo City,US,32.8551,-90.4056,48.9,56,100,9.6,overcast clouds
802,Hope Mills,US,34.9704,-78.9453,57.6,41,100,9.22,overcast clouds
803,Hereford,GB,52.0568,-2.7148,47.05,89,83,12.12,broken clouds
804,Grenada,ES,37.1882,-3.6067,51.67,68,20,3.44,few clouds
805,Fort Oglethorpe,US,34.949,-85.2569,47.1,44,72,1.99,broken clouds
806,Taylor,US,32.3001,-99.8337,53.06,30,20,6.91,few clouds
807,Chaska,US,44.7894,-93.6022,24.76,61,100,13.0,overcast clouds
808,Valparaiso,CL,-33.0393,-71.6273,76.64,63,0,17.27,clear sky
809,Kirksville,US,40.1948,-92.5833,23.58,65,100,12.66,overcast clouds
810,Forest,US,37.3638,-79.2897,47.12,44,19,8.01,few clouds
811,Marshfield,US,44.6689,-90.1718,23.88,53,0,24.16,clear sky
812,Duncanville,US,32.6518,-96.9083,53.42,27,0,14.97,clear sky
813,Auburndale,US,28.0653,-81.7887,78.75,70,100,11.5,overcast clouds
814,Sebring,US,27.4956,-81.4409,80.31,49,0,9.22,clear sky
815,Andrews,US,32.3187,-102.5457,52.29,22,75,7.0,broken clouds
816,Independence,US,39.0911,-94.4155,28.11,54,100,14.97,overcast clouds
817,North Royalton,US,41.3137,-81.7246,22.12,66,100,17.0,overcast clouds
818,Grinnell,US,41.743,-92.7224,26.58,66,0,19.57,clear sky
819,Howell,US,42.6073,-83.9294,21.74,78,40,14.97,scattered clouds
820,Odessa,UA,46.4775,30.7326,41.27,79,25,9.64,scattered clouds
821,Morton,US,46.7722,-101.2615,21.9,87,0,4.88,clear sky
822,New Baltimore,US,42.6811,-82.7369,25.03,77,75,11.5,broken clouds
823,Gatesville,US,31.4352,-97.7439,56.3,33,0,11.68,clear sky
824,Dublin,US,37.7021,-121.9358,67.51,64,0,10.36,clear sky
825,Prior Lake,US,44.7133,-93.4227,24.08,58,0,14.0,clear sky
826,Albert Lea,US,43.648,-93.3683,19.96,67,0,12.66,clear sky
827,Yuma,US,32.7253,-114.6244,78.96,15,0,3.44,clear sky
828,New Philadelphia,US,40.4898,-81.4457,23.86,66,100,15.01,overcast clouds
829,Canyon Lake,US,29.8752,-98.2625,50.76,67,100,7.0,overcast clouds
830,Harrisonburg,US,38.4496,-78.8689,43.21,40,0,11.5,clear sky
831,Bullhead City,US,35.1478,-114.5683,72.93,18,0,11.5,clear sky
